name, site_id, lat, lon
Big Hole River abv Jackson, 41D 01000, 45.252, -113.446
Big Hole River abv Spring Cr nr Jackson, 41D 02000, 45.361, -113.441
Big Hole River at Miner Creek nr Jackson, 41D 05000, 45.423, -113.449
Deep Creek nr Wise River, 41D 07700, 45.884, -113.118
Wise River nr mouth, 41D 07900, 45.797, -112.950


